{"total_count": 128, "results": [{"number": 117, "name": "117-MAIRIE DE CHANTENAY", "address": "Place de la Libert\u00e9", "position": {"lon": -1.58785, "lat": 47.20656}, "banking": "False", "bonus": "False", "status": "OPEN", "contract_name": "nantes", "bike_stands": 15, "available_bike_stands": 10, "available_bikes": 5, "last_update": "2024-12-15T12:17:14+00:00"}, {"number": 85, "name": "085-BEL AIR", "address": "102, rue Paul Bellamy", "position": {"lon": -1.56002281967663, "lat": 47.2263944309861}, "banking": "False", "bonus": "False", "status": "OPEN", "contract_name": "nantes", "bike_stands": 14, "available_bike_stands": 13, "available_bikes": 1, "last_update": "2024-12-15T12:18:53+00:00"}, {"number": 55, "name": "055-MAGELLAN", "address": "11, rue de Belfort", "position": {"lon": -1.54429847094521, "lat": 47.2107814065594}, "banking": "False", "bonus": "False", "status": "OPEN", "contract_name": "nantes", "bike_stands": 17, "available_bike_stands": 9, "available_bikes": 8, "last_update": "2024-12-15T12:18:08+00:00"}, {"number": 90, "name": "090-PROC\u00c9", "address": "Angle boulevard Gaston Serpette - Boulevard Auguste Pageot", "position": {"lon": -1.57661284372726, "lat": 47.2241950617326}, "banking": "False", "bonus": "False", "status": "OPEN", "contract_name": "nantes", "bike_stands": 15, "available_bike_stands": 8, "available_bikes": 7, "last_update": "2024-12-15T12:18:01+00:00"}, {"number": 60, "name": "060-GARE DE NANTES NORD", "address": "27 boulevard Stalingrad", "position": {"lon": -1.543517, "lat": 47.217212}, "banking": "True", "bonus": "False", "status": "OPEN", "contract_name": "nantes", "bike_stands": 40, "available_bike_stands": 32, "available_bikes": 8, "last_update": "2024-12-15T12:17:16+00:00"}, {"number": 124, "name": "124-PAS ENCHANT\u00c9S", "address": "Boulevard des Pas Enchant\u00e9s - SAINT-S\u00c9BASTIEN-SUR-LOIRE", "position": {"lon": -1.522726, "lat": 47.205239}, "banking": "True", "bonus": "False", "status": "OPEN", "contract_name": "nantes", "bike_stands": 25, "available_bike_stands": 5, "available_bikes": 20, "last_update": "2024-12-15T12:17:12+00:00"}, {"number": 5, "name": "005-BROSSARD", "address": "12, All\u00e9e Duquesne", "position": {"lon": -1.55674926307655, "lat": 47.2188372304694}, "banking": "False", "bonus": "False", "status": "OPEN", "contract_name": "nantes", "bike_stands": 18, "available_bike_stands": 13, "available_bikes": 5, "last_update": "2024-12-15T12:18:11+00:00"}, {"number": 37, "name": "037-F\u00c9LIX \u00c9BOU\u00c9", "address": "1, all\u00e9e de l'\u00cele Gloriette", "position": {"lon": -1.5568245371939, "lat": 47.211465063355}, "banking": "False", "bonus": "False", "status": "OPEN", "contract_name": "nantes", "bike_stands": 27, "available_bike_stands": 1, "available_bikes": 26, "last_update": "2024-12-15T12:22:58+00:00"}, {"number": 71, "name": "071-TALENSAC NORD", "address": "18, rue Talensac - 26, rue de Bel Air", "position": {"lon": -1.55894074669074, "lat": 47.2218536381884}, "banking": "False", "bonus": "False", "status": "OPEN", "contract_name": "nantes", "bike_stands": 14, "available_bike_stands": 11, "available_bikes": 3, "last_update": "2024-12-15T12:23:01+00:00"}, {"number": 86, "name": "086-HAUTS PAV\u00c9S", "address": "Rue de Berry - Rue des Hauts Pav\u00e9s", "position": {"lon": -1.56750184250227, "lat": 47.2254706269804}, "banking": "False", "bonus": "False", "status": "OPEN", "contract_name": "nantes", "bike_stands": 16, "available_bike_stands": 16, "available_bikes": 0, "last_update": "2024-12-15T12:22:00+00:00"}]}