{"total_count": 128, "results": [{"number": 55, "name": "055-MAGELLAN", "address": "11, rue de Belfort", "position": {"lon": -1.54429847094521, "lat": 47.2107814065594}, "banking": "False", "bonus": "False", "status": "OPEN", "contract_name": "nantes", "bike_stands": 17, "available_bike_stands": 10, "available_bikes": 7, "last_update": "2024-12-10T10:39:58+00:00"}, {"number": 71, "name": "071-TALENSAC NORD", "address": "18, rue Talensac - 26, rue de Bel Air", "position": {"lon": -1.55894074669074, "lat": 47.2218536381884}, "banking": "False", "bonus": "False", "status": "OPEN", "contract_name": "nantes", "bike_stands": 14, "available_bike_stands": 11, "available_bikes": 3, "last_update": "2024-12-10T10:41:54+00:00"}, {"number": 31, "name": "031-BOURSE", "address": "All\u00e9e de la Bourse - Boulevard des Nations-Unies", "position": {"lon": -1.55908655123987, "lat": 47.2120830307532}, "banking": "True", "bonus": "False", "status": "OPEN", "contract_name": "nantes", "bike_stands": 22, "available_bike_stands": 8, "available_bikes": 14, "last_update": "2024-12-10T10:43:03+00:00"}, {"number": 117, "name": "117-MAIRIE DE CHANTENAY", "address": "Place de la Libert\u00e9", "position": {"lon": -1.58785, "lat": 47.20656}, "banking": "False", "bonus": "False", "status": "OPEN", "contract_name": "nantes", "bike_stands": 15, "available_bike_stands": 3, "available_bikes": 12, "last_update": "2024-12-10T10:43:04+00:00"}, {"number": 56, "name": "056-VINCENT GACHE", "address": "9, rue Fran\u00e7ois Albert", "position": {"lon": -1.54177773985064, "lat": 47.2067986185753}, "banking": "False", "bonus": "False", "status": "OPEN", "contract_name": "nantes", "bike_stands": 15, "available_bike_stands": 8, "available_bikes": 7, "last_update": "2024-12-10T10:42:42+00:00"}, {"number": 116, "name": "116-LIBERT\u00c9", "address": "Rond-Point de Louisiane", "position": {"lon": -1.588395, "lat": 47.198124}, "banking": "False", "bonus": "False", "status": "OPEN", "contract_name": "nantes", "bike_stands": 20, "available_bike_stands": 12, "available_bikes": 8, "last_update": "2024-12-10T10:43:19+00:00"}, {"number": 86, "name": "086-HAUTS PAV\u00c9S", "address": "Rue de Berry - Rue des Hauts Pav\u00e9s", "position": {"lon": -1.56750184250227, "lat": 47.2254706269804}, "banking": "False", "bonus": "False", "status": "OPEN", "contract_name": "nantes", "bike_stands": 16, "available_bike_stands": 8, "available_bikes": 7, "last_update": "2024-12-10T10:43:09+00:00"}, {"number": 38, "name": "038-RICORDEAU", "address": "Place Alexis-Ricordeau - Chauss\u00e9e de la Madeleine", "position": {"lon": -1.55304912932047, "lat": 47.2121084631418}, "banking": "True", "bonus": "False", "status": "OPEN", "contract_name": "nantes", "bike_stands": 40, "available_bike_stands": 6, "available_bikes": 34, "last_update": "2024-12-10T10:45:11+00:00"}, {"number": 3, "name": "003-STRASBOURG", "address": "4, rue des Carm\u00e9lites - Place Tirant Lo Blanc", "position": {"lon": -1.551979, "lat": 47.21682}, "banking": "False", "bonus": "False", "status": "OPEN", "contract_name": "nantes", "bike_stands": 15, "available_bike_stands": 14, "available_bikes": 1, "last_update": "2024-12-10T10:43:32+00:00"}, {"number": 51, "name": "051-TABARLY", "address": "5, boulevard de Berlin", "position": {"lon": -1.52973588598036, "lat": 47.2141946314965}, "banking": "False", "bonus": "False", "status": "OPEN", "contract_name": "nantes", "bike_stands": 20, "available_bike_stands": 10, "available_bikes": 10, "last_update": "2024-12-10T10:44:01+00:00"}]}